,City,Cloudiness,Country,Date,Humidity,Lat,Lng,Max Temp,Wind Speed
0,Constitucion,0,MX,1541226397,79,23.99,-104.67,42.62,3.49
1,Rikitea,68,PF,1541226789,100,-23.12,-134.97,71.33,12.66
2,Batagay-Alyta,0,RU,1541226800,59,67.8,130.41,-14.27,4.05
3,Ushuaia,75,AR,1541224800,43,-54.81,-68.31,50,23.04
4,Spokane,90,US,1541224680,60,47.66,-117.42,50,6.93
5,Vaini,12,IN,1541226788,55,15.34,74.49,87.12,6.17
6,Busselton,0,AU,1541226962,91,-33.64,115.35,66.65,14.67
7,Jamestown,20,AU,1541225968,34,-33.21,138.6,76.37,6.96
8,Pevek,68,RU,1541226784,100,69.7,170.27,13.37,6.62
9,Rudersberg,90,DE,1541226000,93,48.41,11.22,46.4,4.7
10,Borogontsy,64,RU,1541227253,63,62.67,131.17,13.41,8.3
11,Kaka,0,TM,1541227253,91,37.35,59.62,39.2,3.38
12,Shafranovo,88,RU,1541227254,96,53.97,54.77,33.39,4.16
13,Karratha,68,AU,1541226842,21,-20.74,116.85,98.51,6.73
14,Yellowknife,90,CA,1541224800,92,62.45,-114.38,23,4.7
16,Flinders,0,AU,1541226862,32,-34.58,150.85,80.33,5.39
17,Punta Arenas,75,CL,1541224800,81,-53.16,-70.91,44.6,9.17
18,Verkhnevilyuysk,56,RU,1541227254,65,63.45,120.31,13.14,7.63
19,Longyearbyen,20,NO,1541224200,67,78.22,15.63,21.2,31.09
20,Albany,90,US,1541225940,100,42.65,-73.75,55.94,1.92
21,Faanui,68,PF,1541226246,100,-16.48,-151.75,77.04,10.76
22,Marystown,92,CA,1541227255,100,47.17,-55.16,43.88,12.55
23,Kodiak,1,US,1541224380,100,39.95,-94.76,42.08,4.7
24,East London,0,ZA,1541224800,52,-33.02,27.91,66.2,18.34
26,Hokitika,100,NZ,1541227256,100,-42.72,170.96,56.03,16.58
27,Taoudenni,0,ML,1541227256,46,22.68,-3.98,52.34,10.98
28,Bluff,68,AU,1541226796,29,-23.58,149.07,90.5,6.06
29,Ribeira Grande,8,PT,1541226404,98,38.52,-28.7,68.22,8.52
31,Nabire,68,ID,1541227045,92,-3.36,135.5,75.38,1.92
32,Cape Town,0,ZA,1541224800,52,-33.93,18.42,68,1.12
33,Dwarka,40,IN,1541226600,54,28.58,77.04,80.6,8.05
34,Husavik,88,CA,1541226884,99,50.56,-96.99,32.63,6.4
35,Hermanus,76,ZA,1541226787,51,-34.42,19.24,62.37,2.93
36,New Norfolk,0,AU,1541225220,60,-42.78,147.06,57.2,18.34
37,Qarayeri,90,AZ,1541224800,81,40.79,46.31,48.2,2.24
38,Prince Rupert,90,CA,1541224800,93,54.32,-130.32,46.4,16.11
39,Hilo,75,US,1541225460,90,19.71,-155.08,73.04,6.93
40,Gari,80,RU,1541227258,81,59.43,62.35,30.29,4.38
41,Lahaina,1,US,1541224560,86,20.87,-156.68,78.08,14.99
42,Huarmey,32,PE,1541227017,86,-10.07,-78.15,59.04,3.04
43,Mount Isa,56,AU,1541224800,19,-20.73,139.49,100.4,14.99
44,Athens,90,US,1541226000,93,34.8,-86.97,45.68,4.94
45,Champerico,24,MX,1541227258,85,16.38,-93.6,67.86,3.04
46,Clyde River,90,CA,1541224800,77,70.47,-68.59,6.8,14.99
47,Gigmoto,88,PH,1541226843,100,13.78,124.39,81.5,7.4
48,Qaqortoq,64,GL,1541224200,73,60.72,-46.03,21.2,1.12
49,Adrar,0,DZ,1541224800,46,27.87,-0.29,53.6,9.17
50,Pacific Grove,1,US,1541224500,77,36.62,-121.92,57.2,2.04
51,Beruwala,24,LK,1541227259,100,6.48,79.98,82.31,1.59
52,Vestmannaeyjar,92,IS,1541226866,100,63.44,-20.27,37.89,31.34
53,Port Alfred,0,ZA,1541226803,77,-33.59,26.89,65.97,22.5
54,Rio Gallegos,0,AR,1541224800,71,-51.62,-69.22,50,16.11
55,Hakui,20,JP,1541224800,45,36.89,136.78,64.4,5.82
56,Rock Springs,20,US,1541224440,88,41.59,-109.2,33.98,16.11
57,Souillac,12,FR,1541224800,100,45.6,-0.6,39.2,2.24
58,Kapit,44,MY,1541227260,75,2.02,112.94,84.2,2.93
59,Hobart,0,AU,1541225220,50,-42.88,147.33,57.2,18.34
61,Noshiro,40,JP,1541224800,62,40.21,140.05,59,8.05
63,Saskylakh,64,RU,1541226811,80,71.97,114.09,1.49,4.38
64,Neuquen,0,AR,1541224800,66,-38.95,-68.06,55.4,6.93
66,Marawi,56,PH,1541226876,98,8,124.29,75.87,2.59
67,Vila Franca do Campo,75,PT,1541224800,94,37.72,-25.43,68,8.05
68,Celestun,88,MX,1541227261,100,20.87,-90.4,78.08,22.06
69,Bredasdorp,64,ZA,1541224800,59,-34.53,20.04,66.2,3.36
70,San Cristobal,75,EC,1541224800,93,-0.39,-78.55,51.8,1.12
71,Caravelas,68,BR,1541226882,100,-17.73,-39.27,77.72,9.42
72,Mount Gambier,68,AU,1541226895,66,-37.83,140.78,59.94,7.07
73,Ilulissat,76,GL,1541224200,56,69.22,-51.1,14,21.92
74,Tasiilaq,0,GL,1541224200,57,65.61,-37.64,23,3.36
75,Hamilton,40,BM,1541224500,69,32.3,-64.78,75.2,14.99
76,Timra,0,SE,1541226000,86,62.49,17.33,39.2,6.93
77,Arraial do Cabo,64,BR,1541226245,94,-22.97,-42.02,72.68,11.77
78,Acajutla,64,SV,1541226882,84,13.59,-89.83,76.28,1.59
79,Farafangana,56,MG,1541227263,100,-22.82,47.83,76.14,6.4
80,Brigantine,90,US,1541226300,96,39.41,-74.36,66.92,8.05
82,Dharchula,92,IN,1541227263,100,29.85,80.53,35.69,0.92
83,Geraldton,90,CA,1541224800,92,49.72,-86.95,28.4,2.48
84,Cockburn Town,32,TC,1541226826,100,21.46,-71.14,79.07,21.5
85,Pestovo,75,RU,1541224800,87,55.36,37.98,46.4,8.95
86,Rock Sound,32,BS,1541227264,100,24.9,-76.2,82.17,12.55
87,Ancud,92,CL,1541226848,84,-41.87,-73.83,49.82,11.65
88,College,1,US,1541224380,83,64.86,-147.8,8.96,3.36
89,Tuktoyaktuk,75,CA,1541221200,85,69.44,-133.03,15.8,6.93
90,Tefe,56,BR,1541227264,94,-3.35,-64.71,76.41,3.71
91,Mataura,32,NZ,1541226785,62,-46.19,168.86,53.01,23.06
92,Chuy,92,UY,1541226842,95,-33.69,-53.46,60.98,14.67
93,Walvis Bay,90,NA,1541224800,93,-22.95,14.51,60.8,6.93
94,Butaritari,0,KI,1541226807,100,3.07,172.79,84.92,6.96
95,Avarua,75,CK,1541224800,88,-21.21,-159.78,77,4.7
96,Debno,0,PL,1541227265,95,52.74,14.7,37.58,6.73
97,Santa Lucia,40,IT,1541224500,71,39.93,9.66,57.2,6.93
98,Nikolskoye,90,RU,1541223000,93,59.7,30.79,50,6.71
99,Jertih,90,MY,1541224800,88,5.74,102.5,78.8,2.24
101,San Patricio,44,PY,1541226822,89,-26.98,-56.83,77,4.5
103,Trat,0,TH,1541224800,52,12.25,102.51,91.4,8.05
104,Qaanaaq,8,GL,1541226322,100,77.48,-69.36,0.59,11.54
105,Half Moon Bay,1,US,1541224800,67,37.46,-122.43,64.04,9.08
106,Lebu,0,ET,1541221200,58,8.96,38.73,59,3.36
107,Agadez,0,NE,1541224800,28,16.97,7.99,69.8,4.7
108,Cidreira,92,BR,1541226393,85,-30.17,-50.22,68.31,9.75
109,Ron,0,IN,1541227268,61,15.7,75.73,84.2,9.42
110,Pisco,0,PE,1541224800,88,-13.71,-76.2,62.6,2.24
111,Fairbanks,1,US,1541224380,83,64.84,-147.72,8.96,3.36
112,Narsaq,36,GL,1541224200,73,60.91,-46.05,21.2,1.12
113,Puerto Ayora,8,EC,1541226318,100,-0.74,-90.35,70.29,9.42
114,Khatanga,68,RU,1541226249,79,71.98,102.47,4.46,10.09
115,Tazovskiy,44,RU,1541226804,74,67.47,78.7,3.29,7.74
116,Cabo San Lucas,5,MX,1541224440,68,22.89,-109.91,71.6,6.93
118,Provideniya,24,RU,1541226796,100,64.42,-173.23,35.78,22.84
119,Juneau,90,US,1541224560,66,58.3,-134.42,35.96,3.36
120,Saldanha,8,PT,1541226824,94,41.42,-6.55,33.08,3.15
121,Chunskiy,80,RU,1541227269,43,56.08,99.63,28.13,5.73
122,Nalut,44,LY,1541227056,100,31.86,10.98,54.59,3.38
124,Barentu,24,ER,1541227270,80,15.11,37.59,72.5,4.05
125,Port Macquarie,40,AU,1541224800,26,-31.43,152.91,95,12.75
126,Mahebourg,40,MU,1541224800,65,-20.41,57.7,80.6,13.87
127,Katobu,8,ID,1541227270,100,-4.94,122.53,82.4,3.15
128,The Valley,20,AI,1541224800,74,18.22,-63.06,80.6,16.11
129,Kahului,1,US,1541220960,79,20.89,-156.47,78.98,16.11
130,Phan Thiet,20,VN,1541227039,79,10.93,108.1,87.08,19.15
131,Vermilion,90,CA,1541224800,92,53.35,-110.85,21.2,4.7
132,Luderitz,32,NA,1541224800,93,-26.65,15.16,57.2,11.41
133,Victoria,75,BN,1541224800,59,5.28,115.24,93.2,3.36
134,Aragarcas,32,BR,1541227271,92,-15.9,-52.25,72.14,0.81
135,Batagay,44,RU,1541227271,83,67.65,134.64,-5.9,3.15
136,Aksu,90,KZ,1541224800,93,52.04,76.93,32,13.42
137,Atuona,68,PF,1541226818,100,-9.8,-139.03,80.87,14.79
138,Chiheru de Jos,0,RO,1541224800,87,46.69,24.88,55.4,5.82
139,Kaoma,80,ZM,1541227272,85,-14.8,24.8,69.39,5.61
141,Airai,0,TL,1541226466,49,-8.93,125.41,86.54,2.71
142,Mporokoso,80,ZM,1541227272,94,-9.37,30.12,66.29,3.94
143,Muli,0,IN,1541227272,40,22.62,71.45,93.87,4.61
144,Chokurdakh,68,RU,1541226845,80,70.62,147.9,1.71,3.04
145,Hithadhoo,76,MV,1541226982,100,-0.6,73.08,82.89,11.77
146,Grand Gaube,40,MU,1541224800,65,-20.01,57.66,80.6,13.87
147,Ca Mau,88,VN,1541227273,84,9.18,105.15,85.59,15.79
148,Harper,1,US,1541225700,77,30.3,-99.24,50,3.36
149,Guerrero Negro,0,MX,1541226873,98,27.97,-114.04,61.97,8.52
151,Mitsamiouli,20,KM,1541224800,70,-11.38,43.28,84.2,11.41
152,Hobyo,8,SO,1541227274,75,5.35,48.53,82.4,10.42
153,Kapaa,75,US,1541224560,79,22.08,-159.32,78.08,17.22
154,Ronne,8,FR,1541226600,100,48.45,0.83,30.2,2.24
155,Port Elizabeth,90,US,1541226300,100,39.31,-74.98,66.02,6.62
156,Moranbah,8,AU,1541226896,33,-22,148.04,88.7,11.32
157,Naze,20,NG,1541226466,95,5.43,7.07,73.49,1.92
158,San Carlos,64,VE,1541227275,95,9.66,-68.59,71.24,3.04
159,Bethel,1,US,1541224380,80,60.79,-161.76,24.98,16.11
160,Thompson,40,CA,1541224800,84,55.74,-97.86,5,2.24
161,Orlik,44,RU,1541227275,60,52.51,99.83,11.84,3.71
162,Limbang,75,BN,1541224800,49,4.75,115.01,93.2,8.05
163,Yerbogachen,64,RU,1541227044,58,61.28,108.01,15.44,8.75
164,Samarai,88,PG,1541226475,100,-10.62,150.67,79.43,16.69
165,Faya,40,SA,1541224800,42,18.39,42.45,68,4.7
166,Beian,75,NO,1541226000,80,63.66,9.57,39.2,9.17
167,Barrow,0,AR,1541226637,95,-38.31,-60.23,51.26,8.41
168,Tessalit,0,ML,1541227276,26,20.2,1.01,63.23,7.07
169,Tiksi,0,RU,1541226784,61,71.64,128.87,-13.41,4.94
171,La Mesa,1,US,1541224560,42,32.77,-117.02,69.98,2.37
172,Aksay,0,RU,1541227277,83,47.27,39.86,41.76,13.22
173,Baykit,68,RU,1541226791,76,61.68,96.39,18.36,8.97
174,Cherskiy,32,RU,1541226387,74,68.75,161.3,-3.06,2.59
175,Kayerkan,76,RU,1541227278,74,69.35,87.76,0.05,3.15
177,Klaksvik,92,FO,1541224200,100,62.23,-6.59,48.2,19.46
178,Boca do Acre,92,BR,1541227278,94,-8.76,-67.39,77.22,2.15
179,Meget,0,RU,1541224800,46,52.42,104.06,28.4,8.95
180,Paamiut,64,GL,1541227037,100,61.99,-49.67,32.63,13.67
181,Namibe,44,AO,1541226843,100,-15.19,12.15,70.88,10.2
182,Lavrentiya,0,RU,1541226807,100,65.58,-170.99,36.72,23.06
184,Taksimo,48,RU,1541226836,36,56.36,114.84,10.22,2.71
185,Ugoofaaru,12,MV,1541226472,100,5.67,73,82.67,4.38
186,Upernavik,76,GL,1541226244,100,72.79,-56.15,22.82,14.67
187,Palauig,0,PH,1541227279,81,15.44,119.9,85.19,3.6
188,Muisne,92,EC,1541227279,93,0.61,-80.02,72.86,3.6
190,Jardim,0,BR,1541227280,76,-21.48,-56.15,77.04,7.18
192,North Bend,90,US,1541226600,100,43.41,-124.22,50,3.94
193,Sao Domingos,44,BR,1541227280,96,-13.4,-46.32,65.16,3.38
194,Salinopolis,92,BR,1541226882,95,-0.61,-47.36,81.95,13.67
195,Peleduy,64,RU,1541227281,48,59.63,112.75,14.76,7.52
196,Cayenne,90,GF,1541224800,94,4.94,-52.33,73.4,1.12
197,Torbay,90,CA,1541224800,100,47.66,-52.73,41,3.36
199,Wencheng,92,CN,1541227281,100,27.79,120.09,57.96,2.59
200,Kalmunai,88,LK,1541227043,100,7.42,81.82,78.12,4.38
201,Camacha,75,PT,1541224800,72,33.08,-16.33,66.2,11.41
202,Bida,8,NG,1541227282,93,9.08,6.02,73.17,2.82
203,Bonavista,80,CA,1541226389,100,48.65,-53.11,42.17,4.16
204,Kavaratti,48,IN,1541227282,100,10.57,72.64,80.19,9.19
206,Torrijos,0,ES,1541226600,81,39.98,-4.28,42.8,1.7
207,Kamenka,76,RU,1541227057,81,53.19,44.05,32.67,10.31
208,Boyuibe,80,BO,1541227283,83,-20.43,-63.28,74.39,9.98
209,La Palma,92,CO,1541227283,99,5.36,-74.39,67.28,0.69
210,Berlevag,88,NO,1541227039,100,70.86,29.09,32.36,7.4
211,Alice Town,64,BS,1541227284,100,25.72,-79.3,80.87,17.25
212,Talnakh,68,RU,1541226316,88,69.49,88.39,-3.69,2.93
213,Kingman,1,US,1541224560,45,35.19,-114.05,69.98,2.48
214,Beidao,76,CN,1541227284,87,34.57,105.89,43.88,7.18
215,Bambous Virieux,40,MU,1541224800,65,-20.34,57.76,80.6,13.87
216,Manggar,88,ID,1541226988,100,-2.88,108.27,78.21,3.27
217,Saint-Augustin,12,FR,1541226600,100,44.83,-0.61,39.2,2.24
218,Leningradskiy,76,RU,1541226805,100,69.38,178.42,18.09,5.06
219,Filingue,0,NE,1541227285,56,14.35,3.32,62.6,3.15
220,Saint-Pierre,12,FR,1541224800,81,48.95,4.24,32,6.93
221,Lucenec,0,SK,1541224800,93,48.33,19.67,55.4,1.59
222,Kieta,76,PG,1541226804,98,-6.22,155.63,81.23,5.84
223,Hot Springs,1,US,1541224380,95,34.5,-93.06,44.06,2.37
224,Carnarvon,12,ZA,1541226401,12,-30.97,22.13,63.14,12.77
225,San Quintin,20,PH,1541224800,74,17.54,120.52,86,6.93
226,Winsum,0,NL,1541226300,100,53.33,6.52,44.6,2.24
227,Platanos,40,GR,1541226000,100,35.47,23.6,60.8,15.23
228,Mar del Plata,0,AR,1541226376,94,-46.43,-67.52,46.4,6.96
230,Alegrete,92,BR,1541227288,99,-29.79,-55.79,68.04,3.49
231,Raudeberg,80,NO,1541224200,70,61.99,5.14,44.6,21.92
232,Araceli,48,PH,1541227288,99,10.55,119.99,84.83,15.46
234,Hunchun,0,CN,1541227288,50,42.86,130.36,61.43,2.71
235,Dikson,12,RU,1541226387,100,73.51,80.55,16.97,5.39
236,Tromso,75,NO,1541224200,80,69.65,18.96,41,14.99
237,Katangli,0,RU,1541227289,75,51.71,143.23,48.69,15.35
238,Coquimbo,0,CL,1541224800,100,-29.95,-71.34,55.4,5.17
239,Vardo,75,US,1541224800,79,39.62,-77.74,53.6,5.82
241,Castro,92,CL,1541226834,92,-42.48,-73.76,47.39,11.1
243,Kondagaon,0,IN,1541227290,62,19.59,81.66,84.42,1.7
244,Namatanai,48,PG,1541227290,100,-3.66,152.44,83.39,8.19
245,Sangar,0,RU,1541227290,67,63.92,127.47,5,9.31
246,Katsuura,20,JP,1541224800,55,33.93,134.5,62.6,6.93
247,Richards Bay,48,ZA,1541226432,100,-28.77,32.06,63.81,1.25
248,Sitka,36,US,1541226883,59,37.17,-99.65,45.27,11.77
249,Tabou,88,CI,1541226865,100,4.42,-7.36,78.44,5.95
250,Soto la Marina,0,MX,1541227291,70,23.77,-98.21,62.69,3.6
252,Aklavik,5,CA,1541224800,72,68.22,-135.01,12.2,2.24
254,Wuwei,44,CN,1541227292,64,37.93,102.64,36.95,4.5
257,Saint George,20,GR,1541224200,93,39.45,22.34,53.6,4.7
258,Yatou,75,CM,1541224800,94,3.63,9.81,73.4,5.61
259,Araouane,0,ML,1541226832,42,18.9,-3.53,60.53,6.96
260,Kruisfontein,0,ZA,1541226817,80,-34,24.73,62.78,15.79
261,Salalah,20,OM,1541224200,54,17.01,54.1,84.2,10.29
262,Sheridan,75,US,1541224680,51,39.65,-105.03,50.9,27.51
263,Beringovskiy,92,RU,1541226898,100,63.05,179.32,32.99,11.21
264,Pemberton,0,AU,1541227293,48,-34.44,116.03,72.77,11.99
265,Manaus,75,BR,1541224800,94,-3.13,-59.98,75.2,2.24
266,Scottsbluff,90,US,1541225880,89,41.87,-103.67,44.96,10.29
267,Dukat,12,RS,1541227002,91,42.44,22.31,47.12,2.26
268,Kaitangata,24,NZ,1541226315,55,-46.28,169.85,55.94,27.87
269,Kirovskiy,0,RU,1541227294,48,45.09,133.51,56.79,5.17
270,Ojuelos de Jalisco,64,MX,1541227294,92,21.86,-101.59,46.62,3.04
271,Mareeba,75,AU,1541224800,65,-16.99,145.42,82.4,16.11
275,Cap Malheureux,40,MU,1541224800,65,-19.98,57.61,80.6,13.87
277,Norman Wells,90,CA,1541224800,84,65.28,-126.83,8.6,2.24
278,Rabaul,68,PG,1541227295,100,-4.2,152.17,81.59,4.38
280,Georgetown,40,GY,1541224800,94,6.8,-58.16,77,2.24
281,Severo-Kurilsk,32,RU,1541226983,92,50.68,156.12,41.67,6.96
282,Tawau,75,MY,1541224800,66,4.26,117.89,89.6,9.17
283,Keti Bandar,0,PK,1541227296,96,24.14,67.45,82.89,3.38
284,Lata,92,IN,1541226397,100,30.78,78.62,39.83,1.36
285,Mantena,76,BR,1541227296,96,-18.78,-40.98,69.57,4.83
287,Riyadh,75,SA,1541224800,33,24.63,46.72,71.6,4.5
288,Kattivakkam,40,IN,1541224800,74,13.22,80.32,87.8,11.41
289,Pimentel,0,BR,1541227297,86,-3.7,-45.5,75.87,4.94
290,Pueblo,1,US,1541224680,47,38.25,-104.61,53.96,9.17
292,Solnechnyy,80,RU,1541227004,66,50.72,136.64,47.57,3.15
293,Okhotsk,0,RU,1541227016,100,59.36,143.24,21.06,16.02
294,Scalea,92,IT,1541227297,98,39.82,15.79,68.36,8.97
295,Masallatah,68,LY,1541227297,92,32.62,14,62.69,2.26
296,Te Anau,36,NZ,1541226391,78,-45.41,167.72,44.91,12.55
297,Luau,88,CD,1541227298,96,-10.7,22.23,67.55,3.27
298,Port Blair,0,IN,1541226784,99,11.67,92.75,84.47,14.56
299,Markova,0,RU,1541224800,46,52.21,104.21,28.4,8.95
300,Taltal,12,CL,1541227298,96,-25.41,-70.49,52.79,0.47
302,Daru,76,SL,1541226814,98,7.99,-10.85,70.02,4.5
303,Sur,0,OM,1541226870,96,22.57,59.53,78.8,17.02
304,Saint-Philippe,90,CA,1541225760,100,45.36,-73.48,40.64,6.93
305,Santa Fe,0,AR,1541227301,95,-31.62,-60.7,66.2,5.73
306,Filadelfia,8,PY,1541227302,66,-22.35,-60.04,82.13,8.08
308,Alofi,8,NU,1541224800,73,-19.06,-169.92,73.4,10.29
309,Asuncion Nochixtlan,76,MX,1541227294,87,17.47,-97.23,47.61,2.15
310,Bacolod,56,PH,1541227303,69,10.68,122.95,86.22,8.97
311,Timbuktu,0,ML,1541227304,39,16.77,-3.01,69.98,9.86
312,Merauke,24,ID,1541226847,87,-8.49,140.4,85.77,15.79
313,Lagoa,20,PT,1541224800,93,37.14,-8.45,55.4,6.96
314,Kibala,0,TD,1541224800,83,9.11,18.35,77,6.93
315,Kupang,0,ID,1541227305,66,-10.16,123.6,89.87,12.77
316,Saint Anthony,75,US,1541224560,57,43.97,-111.68,39.92,4.7
317,La Rioja,0,AR,1541227305,68,-29.41,-66.86,69.12,5.5
318,Ostrovnoy,76,RU,1541226391,95,68.05,39.51,30.42,12.66
319,Urucara,36,BR,1541227305,98,-2.54,-57.76,76.77,1.59
320,Ponta do Sol,80,BR,1541226389,94,-20.63,-46,65.07,5.61
321,Codrington,32,AU,1541226886,59,-28.95,153.24,84.38,5.5
322,Esperance,20,TT,1541224800,94,10.24,-61.45,77,5.39
323,Kulhudhuffushi,0,MV,1541227306,100,6.62,73.07,83.12,4.61
324,Palanga,80,RO,1541227306,96,44.45,25.08,51.26,9.86
325,Zadar,0,HR,1541224800,100,44.12,15.24,55.4,2.24
326,Gurkovo,80,BG,1541226600,87,42.98,23.69,50,2.26
327,Rafai,92,CF,1541227307,100,4.95,23.92,69.35,5.73
328,Sao Joao do Paraiso,56,BR,1541227307,93,-15.31,-42.01,65.12,5.61
329,Sand Springs,90,US,1541225700,88,36.14,-96.11,44.06,3.15
331,Saint-Georges,92,CA,1541227007,95,46.12,-70.67,44.51,6.51
332,Canguaretama,20,BR,1541224800,74,-6.38,-35.14,78.8,10.29
333,Mandera,0,ET,1541227308,56,3.94,41.86,83.93,9.42
334,Pierre,90,US,1541224380,92,44.37,-100.35,39.92,10.29
335,Lorengau,64,PG,1541226802,100,-2.02,147.27,83.3,6.4
336,Phillipsburg,75,US,1541224380,65,39.76,-99.32,44.06,8.05
337,Cesis,88,LV,1541227308,95,57.31,25.27,45.05,10.65
338,Emborion,40,GR,1541224200,71,40.48,21.55,50,6.93
339,Nanortalik,64,GL,1541226791,100,60.14,-45.24,30.69,15.79
340,Rincon,1,US,1541225700,67,32.3,-81.24,57.92,9.17
341,Baruun-Urt,92,MN,1541227309,58,46.68,113.28,20.79,14.12
345,Ambilobe,0,MG,1541226849,49,-13.19,49.05,86.18,3.71
346,Mattru,56,SL,1541227310,93,7.62,-11.83,73.89,4.94
347,Nampula,20,MZ,1541224800,65,-15.12,39.26,78.8,4.7
348,Bathsheba,40,BB,1541224800,78,13.22,-59.52,80.6,13.87
349,Ewa Beach,20,US,1541224680,23,21.32,-158.01,78.08,6.93
350,Pyinmana,0,MM,1541227310,56,19.74,96.21,88.61,3.27
351,North Platte,40,US,1541224380,75,41.12,-100.77,41,6.93
352,San Rafael,0,AR,1541226804,23,-34.61,-68.33,48.42,6.62
353,Rocha,92,UY,1541226469,97,-34.48,-54.34,54.86,6.17
354,Ziro,75,IN,1541224800,69,27.54,93.82,80.6,3.36
355,Ararat,0,AU,1541227311,49,-37.28,142.93,66.42,9.75
356,Henties Bay,0,NA,1541227311,100,-22.12,14.28,60.53,3.94
357,Santiago del Estero,0,AR,1541227075,89,-27.8,-64.26,72.36,3.27
358,Ketchikan,90,US,1541224560,89,55.34,-131.65,46.94,12.75
359,Kitakata,0,JP,1541227312,73,37.67,139.86,54.95,2.59
360,Onega,92,RU,1541227312,100,63.91,38.09,40.37,14.67
362,Benguela,20,AO,1541227312,100,-12.58,13.4,75.69,1.81
363,Port Lincoln,12,AU,1541226823,82,-34.72,135.86,63.99,7.18
364,Mehamn,88,NO,1541227072,90,71.03,27.85,31.64,6.96
365,The Pas,90,CA,1541224800,63,53.82,-101.24,26.6,4.94
366,Novaya Chigla,36,RU,1541227313,79,51.22,40.48,33.35,8.3
367,Coihaique,0,CL,1541221200,75,-45.58,-72.07,46.4,4.7
369,Tera,0,CY,1541226600,47,34.97,32.42,77,3.36
370,Limanowa,75,PL,1541226600,93,49.71,20.42,55.4,2.24
371,Caramay,88,PH,1541227314,97,10.18,119.24,84.83,7.74
372,Khandyga,68,RU,1541226471,77,62.65,135.58,17.24,2.93
373,Mayumba,92,GA,1541227314,99,-3.44,10.65,76.86,3.71
374,Westport,90,IE,1541224800,93,53.8,-9.52,55.4,20.8
375,San Felipe,0,CL,1541224800,81,-32.75,-70.73,51.8,3.36
376,Ambon,0,FR,1541224800,93,47.55,-2.56,35.6,3.36
378,Lompoc,1,US,1541224680,92,34.64,-120.46,59,3.36
379,Tamboril,0,BR,1541226833,80,-4.83,-40.32,72.14,7.63
380,Middletown,90,US,1541225820,93,41.55,-71.29,69.98,24.16
381,Quilali,92,NI,1541227316,93,13.57,-86.03,69.98,2.15
382,Walkerton,90,CA,1541224800,93,44.13,-81.15,37.4,5.82
383,Zabaykalsk,12,CN,1541227316,40,49.64,117.33,22.82,13.89
384,Tavda,20,RU,1541227238,85,58.04,65.27,24.44,3.27
385,La Maddalena,40,IT,1541226000,100,39.15,9.02,53.6,4.7
387,Williston,90,US,1541226300,85,48.15,-103.62,35.96,9.17
389,Sobolevo,92,RU,1541226877,98,54.43,31.9,45.99,12.21
391,Mahibadhoo,12,MV,1541226901,100,3.78,72.97,83.03,6.06
392,Vysokogornyy,0,RU,1541227317,59,50.1,139.13,43.11,10.54
393,Bontang,0,ID,1541227318,85,0.12,117.47,87.12,5.5
395,Olinda,75,EC,1541224800,83,-2.03,-79.75,73.4,12.75
396,Bouna,12,CI,1541227318,94,9.27,-3,72.23,7.18
397,Fatehgarh Churian,40,IN,1541226600,64,31.86,74.96,73.4,8.05
398,Aitape,24,PG,1541227319,95,-3.15,142.36,82.58,7.4
399,Singaraja,88,ID,1541227319,74,-8.11,115.08,81.99,2.82
400,Shimoda,75,JP,1541221200,72,34.7,138.93,64.4,13.87
401,Hohhot,40,CN,1541224800,37,40.81,111.65,55.4,6.71
402,Ati,0,TD,1541227319,23,13.21,18.34,73.22,4.72
403,Xining,0,CN,1541227035,61,36.62,101.77,42.39,3.71
404,Mollendo,12,PE,1541227320,92,-17.03,-72.02,49.37,0.58
405,Sao Filipe,76,CV,1541226828,95,14.9,-24.5,78.89,15.35
406,Inhambane,75,MZ,1541224800,50,-23.87,35.38,77,18.34
407,Dunedin,100,NZ,1541226778,97,-45.87,170.5,54.77,14.12
408,Egvekinot,92,RU,1541227320,89,66.32,-179.17,14.76,2.48
409,Princeton,90,US,1541224560,77,41.37,-89.46,43.52,5.17
410,Muroto,20,JP,1541224800,37,33.37,134.14,68,6.93
411,Axim,80,GH,1541227119,100,4.87,-2.24,80.06,6.73
412,Srednekolymsk,56,RU,1541227321,70,67.46,153.71,6.89,4.16
413,Magadan,75,RU,1541224800,100,59.56,150.8,30.2,3.83
416,Comrat,0,MD,1541227322,87,46.3,28.66,45.5,4.72
417,Belmonte,24,PT,1541227216,92,40.36,-7.35,41.49,4.05
418,Dabola,0,GN,1541226892,83,10.74,-11.11,63.27,2.59
419,Senador Jose Porfirio,20,BR,1541226992,89,-2.59,-51.95,78.98,5.17
420,Hofn,92,IS,1541227056,100,64.25,-15.21,37.85,38.95
421,Oranjemund,56,ZA,1541227322,89,-28.55,16.43,59.9,16.46
422,Gallatin,20,US,1541225700,100,36.39,-86.45,46.94,3.38
423,Banloc,0,RO,1541224800,59,45.39,21.13,64.4,20.8
424,Festus,40,US,1541226060,96,38.22,-90.4,42.98,3.36
425,Gizo,0,IL,1541224200,30,31.8,34.94,71.6,8.05
427,Sao Joao da Barra,88,BR,1541226467,100,-21.64,-41.05,74.12,5.61
428,Katakwi,20,UG,1541227323,86,1.91,33.96,72.09,3.94
430,Farmington,1,US,1541224380,59,36.73,-108.21,42.08,3.15
431,Terrace,90,CA,1541224800,87,54.52,-128.61,46.4,16.11
432,San Juan del Sur,56,NI,1541227324,86,11.25,-85.87,80.42,8.75
433,Wufeng,75,TW,1541225100,94,24.63,121.12,82.4,9.17
435,Cururupu,56,BR,1541226871,80,-1.82,-44.87,79.29,7.63
436,Yenagoa,48,NG,1541226812,91,4.92,6.26,75.02,2.93
437,Hay River,75,CA,1541224800,92,60.82,-115.79,24.8,14.99
438,Malumfashi,0,NG,1541227325,63,11.79,7.62,59.49,2.93
439,Touros,64,BR,1541226741,93,-5.2,-35.46,77,11.65
440,Sampit,0,ID,1541227325,72,-2.54,112.95,90.41,5.28
441,Itoman,75,JP,1541224800,83,26.12,127.67,75.2,13.87
442,Shakawe,20,BW,1541227326,67,-18.36,21.84,70.43,6.17
443,Stodolishche,92,RU,1541227326,98,54.18,32.65,44.82,11.77
444,Sola,40,NO,1541224200,87,58.89,5.65,44.6,11.41
446,Andra,24,RU,1541227326,90,62.52,65.89,25.07,6.29
447,Acapulco,75,MX,1541224140,88,16.86,-99.88,80.6,3.38
448,Salina Cruz,12,MX,1541227327,73,16.18,-95.2,75.65,13
449,Sao Francisco do Sul,92,BR,1541227327,100,-26.24,-48.64,69.53,11.54
450,Dragoman,80,BG,1541226600,87,42.92,22.93,50,2.37
451,Portland,75,US,1541224560,74,45.52,-122.67,55.94,3.71
452,Avera,1,US,1541224500,78,33.19,-82.53,50,9.17
453,Blagoveshchenka,92,RU,1541227328,96,52.83,79.87,32.67,16.8
454,Sept-Iles,90,CA,1541224800,86,50.2,-66.38,33.8,9.17
456,Salinas,1,US,1541224500,89,36.67,-121.66,57.2,2.04
457,Seoul,0,KR,1541226600,38,37.57,126.98,66.2,9.17
458,Chililabombwe,48,ZM,1541227329,85,-12.37,27.84,67.91,4.5
460,Guozhen,0,CN,1541227329,53,29.3,113.14,72.59,4.27
461,Pangnirtung,20,CA,1541227011,100,66.15,-65.72,8.33,6.4
462,San Vicente,0,SV,1541224200,94,13.64,-88.78,77,2.82
463,Bograd,0,RU,1541224800,43,54.22,90.86,33.8,13.42
465,Havre,90,US,1541224380,84,48.55,-109.68,35.06,17.22
466,Maniitsoq,24,GL,1541226964,100,65.42,-52.9,16.56,6.96
467,Wamba,76,CD,1541227331,97,2.14,27.99,70.11,2.82
468,Honiara,75,SB,1541224800,79,-9.43,159.96,84.2,4.7
469,Kaohsiung,75,TW,1541224800,55,22.62,120.31,87.8,6.93
470,Trelleborg,0,SE,1541226000,93,55.38,13.15,41,6.93
471,Redlands,1,US,1541224860,32,34.06,-117.19,75.92,1.14
472,Ilebo,32,CD,1541227332,91,-4.33,20.59,75.06,2.93
473,Nowogard,76,PL,1541226600,93,53.67,15.12,41,2.24
475,Linxia,20,CN,1541226908,68,35.6,103.21,37.13,3.6
476,Banjar,68,ID,1541227005,78,-7.37,108.54,81.32,4.61
477,Irituia,32,BR,1541227333,91,-1.77,-47.44,74.97,5.61
478,Puerto Maldonado,12,PE,1541227333,63,-12.59,-69.19,81.99,3.94
479,Doha,0,QA,1541224800,48,25.29,51.53,86,14.99
480,Ukiah,1,US,1541224560,77,39.15,-123.21,53.96,2.04
481,Sibolga,64,ID,1541226797,95,1.74,98.78,77.76,1.7
482,Ulaanbaatar,20,MN,1541226600,38,47.92,106.92,23,8.95
483,Rezekne,64,LV,1541227334,95,56.5,27.32,46.31,5.73
484,Bandarbeyla,0,SO,1541226859,100,9.49,50.81,79.88,12.77
486,Severodvinsk,90,RU,1541224800,100,64.56,39.82,35.6,6.71
487,Sao Lourenco do Sul,92,BR,1541227334,98,-31.37,-51.98,66.42,8.86
488,Khani,0,GE,1541224800,48,41.96,42.96,60.8,33.33
489,Jijiang,75,CN,1541224800,100,29.8,120.61,62.6,4.47
490,Swan Hill,0,AU,1541227335,37,-35.34,143.56,74.97,11.32
491,Kudahuvadhoo,68,MV,1541227067,100,2.67,72.89,82.4,6.62
492,Port Keats,0,AU,1541226830,69,-14.25,129.55,91.67,5.17
494,Puerto del Rosario,20,ES,1541226600,77,28.5,-13.86,69.8,24.16
495,Calvinia,80,ZA,1541227336,12,-31.47,19.78,62.19,5.84
496,San Matias,20,HN,1541224800,93,13.97,-86.63,60.8,2.24
497,Pontian Kecil,75,MY,1541225400,100,1.48,103.39,89.6,13.87
498,Powell,90,US,1541226240,88,40.16,-83.08,42.08,9.17
499,Bintulu,75,MY,1541224800,75,3.17,113.03,89.6,8.05
500,Karatuzskoye,76,RU,1541227338,58,53.61,92.87,34.47,4.61
501,High Rock,68,BS,1541226867,99,26.63,-78.28,81.86,19.71
502,Flin Flon,0,CA,1541227338,100,54.77,-101.88,19.26,5.39
503,Gombe,12,NG,1541227338,86,10.28,11.17,67.41,2.48
504,Warrnambool,44,AU,1541227339,84,-38.38,142.48,58.82,15.79
505,Sattahip,20,TH,1541226600,48,12.67,100.9,87.8,8.05
506,Vilhena,64,BR,1541227339,95,-12.74,-60.15,73.58,1.7
507,Boynton Beach,90,US,1541226180,90,40.55,-74.25,66.92,17.22
508,Utinga,20,BR,1541224800,74,-5.82,-35.4,78.8,10.29
509,La Ronge,90,CA,1541224800,79,55.1,-105.3,24.8,8.05
510,Mazamari,88,PE,1541227340,84,-11.33,-74.53,65.79,2.37
511,Celina,75,US,1541225700,93,40.55,-84.57,41,6.93
512,Trairi,92,BR,1541227340,100,-3.28,-39.27,79.79,18.59
513,Ternate,75,PH,1541224800,55,14.29,120.72,91.4,11.41
514,Kassala,8,SD,1541227306,63,15.45,36.38,78.71,4.27
516,Kungurtug,0,RU,1541227341,41,50.6,97.53,16.56,4.27
517,Broome,0,GB,1541226000,86,52.47,1.45,44.42,8.05
518,Xichang,0,CN,1541227341,38,27.88,102.25,63.5,1.92
519,Najran,40,SA,1541224800,43,17.54,44.22,69.8,4.7
520,Ballina,90,IE,1541224800,93,54.11,-9.15,55.4,20.8
521,Iquique,75,CL,1541224800,72,-20.22,-70.14,64.4,6.93
522,Limbuhan,32,PH,1541227342,84,11.06,125.02,84.69,5.73
523,Noumea,0,NC,1541224800,39,-22.28,166.46,78.8,11.41
524,Mildura,0,AU,1541227342,38,-34.18,142.16,77.09,9.64
527,Sorland,88,NO,1541226998,100,67.67,12.69,45.05,18.14
528,Atasu,92,KZ,1541226828,82,48.68,71.64,27.99,17.25
529,Bushehr,40,IR,1541224800,56,28.97,50.84,84.2,11.41
530,Yazykovo,56,RU,1541227343,89,54.3,47.38,32.72,8.86
531,Whitehorse,5,CA,1541224800,77,60.72,-135.06,-2.21,3.36
532,Butterworth,75,MY,1541224800,79,5.4,100.37,86,5.82
533,Macamic,90,CA,1541224800,99,48.75,-79,32,10.29
534,Kavieng,36,PG,1541226469,100,-2.57,150.8,83.07,6.4
535,Sri Aman,75,MY,1541224800,70,1.24,111.46,87.8,2.24
537,Kargil,80,PK,1541227018,92,34.56,76.13,17.51,0.92
538,Rio Claro,0,BR,1541227344,91,-22.41,-47.56,67.64,7.07
540,Bend,1,US,1541225700,88,44.06,-121.32,46.04,4.7
541,Tiarei,75,PF,1541224800,69,-17.53,-149.33,80.6,4.7
542,Grand-Santi,0,GF,1541227345,90,4.27,-54.38,75.56,2.82
543,Vitim,64,RU,1541227345,48,59.44,112.57,14.76,7.52
544,Rengasdengklok,80,ID,1541227140,97,-6.16,107.3,86.09,8.19
545,Altamira,8,BR,1541227346,85,-3.2,-52.21,78.84,4.16
546,Gherghesti,75,RO,1541224800,87,46.5,27.52,53.6,13.87
547,Palmer,0,AU,1541224800,48,-34.85,139.16,64.4,10.29
548,South Lake Tahoe,1,US,1541225700,43,38.93,-119.98,53.96,3.36
549,Brus Laguna,12,HN,1541227346,93,15.75,-84.48,75.38,2.37
550,Aripuana,32,BR,1541227347,92,-9.17,-60.63,78.08,2.59
553,Roald,0,NO,1541224200,100,62.58,6.12,44.6,11.41
554,Witu,80,KE,1541226850,81,-2.39,40.44,80.06,4.38
555,Necochea,44,AR,1541226410,99,-38.55,-58.74,49.19,9.42
556,Nishihara,75,JP,1541224800,55,35.74,139.53,66.2,6.93
557,San Policarpo,88,PH,1541227024,97,12.18,125.51,81.81,7.18
559,Silifke,0,TR,1541226894,64,36.38,33.93,62.33,7.74
560,Mwinilunga,76,ZM,1541227348,94,-11.73,24.43,66.42,3.71
561,Poronaysk,0,RU,1541227036,66,49.22,143.1,49.1,10.98
562,Tual,36,ID,1541227348,100,-5.67,132.75,82.31,2.48
563,Monchique,20,PT,1541224800,93,37.32,-8.56,55.4,6.96
564,Vila,90,IT,1541224500,100,45.18,8.4,53.6,8.05
565,Lieksa,92,FI,1541227349,97,63.32,30.02,43.79,7.52
566,Ipixuna,0,BR,1541224800,94,-1.76,-48.8,75.2,5.82
567,Klamath Falls,1,US,1541224380,88,42.22,-121.78,35.06,3.36
568,Alice Springs,0,AU,1541225460,12,-23.7,133.88,105.8,17.22
569,Alyangula,0,AU,1541226884,80,-13.85,136.42,89.37,18.59
570,Yulara,75,AU,1541224800,20,-25.24,130.99,98.6,14.99
571,Kindu,64,CD,1541227350,91,-2.95,25.92,73.76,2.93
572,Mishkino,0,RU,1541224800,93,56.22,46.62,35.6,11.18
573,Fengrun,0,CN,1541227350,42,39.83,118.12,67.32,8.86
574,Haines Junction,12,CA,1541227350,100,60.75,-137.51,-11.93,2.15
575,Gravelbourg,92,CA,1541227350,99,49.88,-106.56,31.01,16.02
576,Kununurra,75,AU,1541224800,42,-15.77,128.74,98.6,12.75
578,Cascais,75,PT,1541224800,93,38.7,-9.42,59,10.29
579,Barra Patuca,24,HN,1541227351,93,15.8,-84.28,81.86,10.98
580,Encruzilhada do Sul,92,BR,1541227351,98,-30.54,-52.52,66.24,7.74
581,Katherine,75,AU,1541224800,25,-14.47,132.26,100.4,8.05
582,Christchurch,0,NZ,1541224800,49,-43.53,172.64,71.6,19.46
583,Vila Velha,20,BR,1541224800,78,-3.71,-38.6,78.8,12.75
584,Pedro II,0,BR,1541227352,67,-4.43,-41.45,76.64,7.63
585,Halden,76,SE,1541226000,92,59.12,11.39,33.8,4.7
586,Maura,56,IN,1541227352,85,29.68,79.39,60.98,5.5
587,Beloha,88,MG,1541226326,76,-25.17,45.06,71.69,14
588,Sambava,68,MG,1541226825,100,-14.27,50.17,77.22,9.98
589,Grindavik,75,IS,1541224800,80,63.84,-22.43,37.4,40.26
590,Manzhouli,12,CN,1541227353,40,49.6,117.43,22.82,13.89
591,Anamur,0,TR,1541227353,78,36.08,32.84,69.12,8.3
592,Praia da Vitoria,75,PT,1541224800,94,38.73,-27.07,68,10.2
594,Balkanabat,0,TM,1541227354,50,39.51,54.36,39.87,4.72
595,Jumla,76,NP,1541226985,70,29.28,82.18,40.1,1.36
596,Bella Union,80,CO,1541227354,98,8.5,-73.35,66.92,2.04
597,Kratovo,0,MK,1541224800,93,42.08,22.18,44.6,1.12
598,Vostok,0,RU,1541227058,56,46.45,135.83,48.92,5.17
599,Cooma,0,AU,1541227354,48,-36.24,149.13,69.53,5.95
600,Marsh Harbour,48,BS,1541226916,96,26.54,-77.06,82.4,16.69
